[{"Lat":42.6465,"Lon":2.52688,"Name":"Carrer de la Baldosa"},{"Lat":42.6475,"Lon":2.53006,"Name":"Rue du Barris 1"},{"Lat":42.64624,"Lon":2.52886,"Name":"Rue du Barris 2"},{"Lat":42.64622,"Lon":2.52979,"Name":"Av. Général de Gaulle 2"},{"Lat":42.64598,"Lon":2.52872,"Name":"Rue Michel Touron"},{"Lat":42.6457,"Lon":2.52789,"Name":"Rue de l'Estudi"},{"Lat":42.64513,"Lon":2.52537,"Name":"Carrer del Réal"},{"Lat":42.64509,"Lon":2.5279,"Name":"Rue de l'Eglise"},{"Lat":42.64502,"Lon":2.52758,"Name":"Rue Presa"},{"Lat":42.64493,"Lon":2.52726,"Name":"Av. Général de Gaulle 1"},{"Lat":42.64468,"Lon":2.52844,"Name":"Carrer Nou"},{"Lat":42.64441,"Lon":2.52675,"Name":"Rue de la Foun Nova"},{"Lat":42.64417,"Lon":2.52875,"Name":"Route de Rigarda"},{"Lat":42.64391,"Lon":2.5264,"Name":"Rue Pans"}]